{
  "type":"FeatureCollection",
  "features": [
    {

    "type":"Feature",
    "geometry":{
        "type":"Point",
        "coordinates":[-80.6164, -5.2058]
    },
    "properties": {
      "title": "Piura",
      "population":"1730114",
      "infected":20,
      "activecases":19,
      "recoverycases":0,
      "deadlycases":1
    }
    },
    {

      "type":"Feature",
      "geometry":{
        "type":"Point",
        "coordinates":[-76.9619,-12.0634]
      },
      "properties": {
        "title": "Lima",
        "population":"1730114",
        "infected":639,
        "activecases":509,
        "recoverycases":0,
        "deadlycases":9
      }
    },
    {
      "type":"Feature",
      "geometry":{
        "type":"Point",
        "coordinates":[-79.1094,-8.0847]
      },
      "properties":{
        "title":"La Libertad",
        "population":"1730114",
        "infected":13,
        "activecases":13,
        "recoverycases":0,
        "deadlycases":0
      }
    },
    {
      "type":"Feature",
      "geometry":{
        "type":"Point",
        "coordinates":[-71.9389,-13.5358]
      },
      "properties":{
        "title":"Cuzco",
        "population":"1730114",
        "infected":17,
        "activecases":17,
        "recoverycases":0,
        "deadlycases":0
      }
    },
    {
      "type":"Feature",
      "geometry":{
        "type":"Point",
        "coordinates":[-79.8281,-6.7875]
      },
      "properties":{
        "title":"Lambayeque",
        "population":"1730114",
        "infected":22,
        "activecases":22,
        "recoverycases":0,
        "deadlycases":0
      }
    },
    {
      "type":"Feature",
      "geometry":{
        "type":"Point",
        "coordinates":[-71.1469,-16.7875]
      },
      "properties":{
        "title":"Arequipa",
        "population":"1730114",
        "infected":15,
        "activecases":15,
        "recoverycases":0,
        "deadlycases":0
      }
    },
    {
      "type":"Feature",
      "geometry":{
        "type":"Point",
        "coordinates":[-73.2952880859375, -3.7820405282110454]
      },
      "properties":{
        "title":"Loreto",
        "population":"1730114",
        "infected":52,
        "activecases":52,
        "recoverycases":0,
        "deadlycases":0
      }
    },
    {
      "type":"Feature",
      "geometry":{
        "type":"Point",
        "coordinates":[-77.135009765625, -12.050736537817011]
      },
      "properties":{
        "title":"Callao",
        "population":"1730114",
        "infected":29,
        "activecases":29,
        "recoverycases":0,
        "deadlycases":0
      }
    },
    {
      "type":"Feature",
      "geometry":{
        "type":"Point",
        "coordinates":[-75.20278930664062, -12.07625285497054]
      },
      "properties":{
        "title":"Junin",
        "population":"1730114",
        "infected":13,
        "activecases":13,
        "recoverycases":0,
        "deadlycases":0
      }
    },
    {
      "type":"Feature",
      "geometry":{
        "type":"Point",
        "coordinates":[-80.45047760009766, -3.5627652904168543]
      },
      "properties":{
        "title":"Tumbes",
        "population":"1730114",
        "infected":8,
        "activecases":8,
        "recoverycases":0,
        "deadlycases":0
      }
    },
    {
      "type":"Feature",
      "geometry":{
        "type":"Point",
        "coordinates":[-77.52880096435547, -9.52643795222296]
      },
      "properties":{
        "title":"Ancash",
        "population":"1730114",
        "infected":6,
        "activecases":6,
        "recoverycases":0,
        "deadlycases":0
      }
    },
    {
      "type":"Feature",
      "geometry":{
        "type":"Point",
        "coordinates":[-75.728759765625, -14.066650533331554]
      },
      "properties":{
        "title":"Ica",
        "population":"1730114",
        "infected":5,
        "activecases":5,
        "recoverycases":0,
        "deadlycases":0
      }
    },
    {
      "type":"Feature",
      "geometry":{
        "type":"Point",
        "coordinates":[ -76.24374389648438, -9.92353680167095]
      },
      "properties":{
        "title":"Huanuco",
        "population":"1730114",
        "infected":4,
        "activecases":4,
        "recoverycases":0,
        "deadlycases":0
      }
    },
    {
      "type":"Feature",
      "geometry":{
        "type":"Point",
        "coordinates":[-76.97433471679688, -6.03131070712581]
      },
      "properties":{
        "title":"San Martin",
        "population":"1730114",
        "infected":3,
        "activecases":3,
        "recoverycases":0,
        "deadlycases":0
      }
    },
    {
      "type":"Feature",
      "geometry":{
        "type":"Point",
        "coordinates":[-74.20921325683592, -13.144346426970376]
      },
      "properties":{
        "title":"Ayacucho",
        "population":"1730114",
        "infected":1,
        "activecases":1,
        "recoverycases":0,
        "deadlycases":0
      }
    },
    {
      "type":"Feature",
      "geometry":{
        "type":"Point",
        "coordinates":[-78.48804473876953, -7.149608677183668]
      },
      "properties":{
        "title":"Cajamarca",
        "population":"1730114",
        "infected":1,
        "activecases":1,
        "recoverycases":0,
        "deadlycases":0
      }
    },
    {
      "type":"Feature",
      "geometry":{
        "type":"Point",
        "coordinates":[-69.19189453125, -12.594774028762547]
      },
      "properties":{
        "title":"Madre de Dios",
        "population":"1730114",
        "infected":1,
        "activecases":1,
        "recoverycases":0,
        "deadlycases":0
      }
    },
    {
      "type":"Feature",
      "geometry":{
        "type":"Point",
        "coordinates":[-76.2516403198242, -10.682706659338804]
      },
      "properties":{
        "title":"Pasco",
        "population":"1730114",
        "infected":1,
        "activecases":1,
        "recoverycases":0,
        "deadlycases":0
      }
    },
    {
      "type":"Feature",
      "geometry":{
        "type":"Point",
        "coordinates":[-70.25344848632812, -18.01563037010757]
      },
      "properties":{
        "title":"Tacna",
        "population":"1730114",
        "infected":1,
        "activecases":1,
        "recoverycases":0,
        "deadlycases":0
      }
    }

  ]}